[
  {
    "brand": {
      "connect": {
        "id": 1
      }
    },
    "name": "ОККО",
    "description": "Заправна станція ОККО у місті Харків за адресою проспект 50-річчя СРСР, 62в",
    "region": "Харківська область",
    "town": "Харків",
    "postcode": "123",
    "address": "проспект 50-річчя СРСР, 62в",
    "lat": "49.980305354",
    "lng": "36.311448886"
  },
  {
    "brand": {
      "connect": {
        "id": 1
      }
    },
    "name": "ОККО",
    "description": "Заправна станція ОККО у місті Харків за адресою проспект Гагаріна, 185",
    "region": "Харківська область",
    "town": "Харків",
    "postcode": "123",
    "address": "проспект Гагаріна, 185",
    "lat": "49.936353880",
    "lng": "36.263017617"
  },
  {
    "brand": {
      "connect": {
        "id": 1
      }
    },
    "name": "ОККО",
    "description": "Заправна станція ОККО у місті Харків за адресою проспект Петра Григоренка, 10/14",
    "region": "Харківська область",
    "town": "Харків",
    "postcode": "123",
    "address": "проспект Петра Григоренка, 10/14",
    "lat": "49.954484902",
    "lng": "36.315102931"
  },
  {
    "brand": {
      "connect": {
        "id": 1
      }
    },
    "name": "ОККО",
    "description": "Заправна станція ОККО у місті Харків за адресою проспект Героїв Харкова, 140а",
    "region": "Харківська область",
    "town": "Харків",
    "postcode": "123",
    "address": "проспект Героїв Харкова, 140а",
    "lat": "49.969281086",
    "lng": "36.308652889"
  },
  {
    "brand": {
      "connect": {
        "id": 1
      }
    },
    "name": "ОККО",
    "description": "Заправна станція ОККО у місті Харків за адресою проспект Героїв Харкова, 269а",
    "region": "Харківська область",
    "town": "Харків",
    "postcode": "123",
    "address": "проспект Героїв Харкова, 269а",
    "lat": "49.958490781",
    "lng": "36.357415680"
  },
  {
    "brand": {
      "connect": {
        "id": 1
      }
    },
    "name": "ОККО",
    "description": "Заправна станція ОККО у місті Харків за адресою вул. Веринська, 1а",
    "region": "Харківська область",
    "town": "Харків",
    "postcode": "123",
    "address": "вул. Веринська, 1а",
    "lat": "49.991889398",
    "lng": "36.281328375"
  },
  {
    "brand": {
      "connect": {
        "id": 1
      }
    },
    "name": "ОККО",
    "description": "Заправна станція ОККО у місті Харків за адресою вул. Гвардійців Широнінців, 12а",
    "region": "Харківська область",
    "town": "Харків",
    "postcode": "123",
    "address": "вул. Гвардійців Широнінців, 12а",
    "lat": "49.986964171",
    "lng": "36.329986174"
  },
  {
    "brand": {
      "connect": {
        "id": 1
      }
    },
    "name": "ОККО",
    "description": "Заправна станція ОККО у місті Харків за адресою вул. Греківська, 112",
    "region": "Харківська область",
    "town": "Харків",
    "postcode": "123",
    "address": "вул. Греківська, 112",
    "lat": "49.965861916",
    "lng": "36.241173682"
  },
  {
    "brand": {
      "connect": {
        "id": 1
      }
    },
    "name": "ОККО",
    "description": "Заправна станція ОККО у місті Харків за адресою вул. Дерев'янка, 23а",
    "region": "Харківська область",
    "town": "Харків",
    "postcode": "123",
    "address": "вул. Дерев'янка, 23а",
    "lat": "50.027812644",
    "lng": "36.258135829"
  },
  {
    "brand": {
      "connect": {
        "id": 1
      }
    },
    "name": "ОККО",
    "description": "Заправна станція ОККО у місті Харків за адресою вул. Зоряна, 2а",
    "region": "Харківська область",
    "town": "Харків",
    "postcode": "123",
    "address": "вул. Зоряна, 2а",
    "lat": "50.040684845",
    "lng": "36.286025774"
  },
  {
    "brand": {
      "connect": {
        "id": 1
      }
    },
    "name": "ОККО",
    "description": "Заправна станція ОККО у місті Харків за адресою вул. Клочківська, 197е",
    "region": "Харківська область",
    "town": "Харків",
    "postcode": "123",
    "address": "вул. Клочківська, 197е",
    "lat": "50.019594544",
    "lng": "36.212177184"
  },
  {
    "brand": {
      "connect": {
        "id": 1
      }
    },
    "name": "ОККО",
    "description": "Заправна станція ОККО у місті Харків за адресою вул. Клочківська, 44",
    "region": "Харківська область",
    "town": "Харків",
    "postcode": "123",
    "address": "вул. Клочківська, 44",
    "lat": "49.997239591",
    "lng": "36.227315906"
  },
  {
    "brand": {
      "connect": {
        "id": 1
      }
    },
    "name": "ОККО",
    "description": "Заправна станція ОККО у місті Харків за адресою вул. Академіка Білецького, 40",
    "region": "Харківська область",
    "town": "Харків",
    "postcode": "123",
    "address": "вул. Академіка Білецького, 40",
    "lat": "50.001157865",
    "lng": "36.272493862"
  },
  {
    "brand": {
      "connect": {
        "id": 1
      }
    },
    "name": "ОККО",
    "description": "Заправна станція ОККО у місті Харків за адресою вул. Роганська, 63а",
    "region": "Харківська область",
    "town": "Харків",
    "postcode": "123",
    "address": "вул. Роганська, 63а",
    "lat": "49.932419260",
    "lng": "36.407267321"
  },
  {
    "brand": {
      "connect": {
        "id": 2
      }
    },
    "name": "AMIC",
    "description": "Заправна станція AMIC у місті Харків за адресою проспект Героїв Харкова, 142а",
    "region": "Харківська область",
    "town": "Харків",
    "postcode": "123",
    "address": "проспект Героїв Харкова, 142а",
    "lat": "49.966134255",
    "lng": "36.319120499"
  },
  {
    "brand": {
      "connect": {
        "id": 2
      }
    },
    "name": "AMIC",
    "description": "Заправна станція AMIC у місті Харків за адресою проспект Героїв Харкова, 137а",
    "region": "Харківська область",
    "town": "Харків",
    "postcode": "123",
    "address": "проспект Героїв Харкова, 137а",
    "lat": "49.988004588",
    "lng": "36.269205138"
  },
  {
    "brand": {
      "connect": {
        "id": 2
      }
    },
    "name": "AMIC",
    "description": "Заправна станція AMIC у місті Харків за адресою вул. Революції 1905 року, 1",
    "region": "Харківська область",
    "town": "Харків",
    "postcode": "123",
    "address": "вул. Революції 1905 року, 1",
    "lat": "49.996377461",
    "lng": "36.198297093"
  },
  {
    "brand": {
      "connect": {
        "id": 2
      }
    },
    "name": "AMIC",
    "description": "Заправна станція AMIC у місті Харків за адресою Нетеченська набережна, 12",
    "region": "Харківська область",
    "town": "Харків",
    "postcode": "123",
    "address": "Нетеченська набережна, 12",
    "lat": "49.983653431",
    "lng": "36.226090968"
  },
  {
    "brand": {
      "connect": {
        "id": 2
      }
    },
    "name": "AMIC",
    "description": "Заправна станція AMIC у місті Харків за адресою вул. Харківських Дивізій, 29а",
    "region": "Харківська область",
    "town": "Харків",
    "postcode": "123",
    "address": "вул. Харківських Дивізій, 29а",
    "lat": "49.951923639",
    "lng": "36.329682078"
  },
  {
    "brand": {
      "connect": {
        "id": 3
      }
    },
    "name": "WOG",
    "description": "Заправна станція WOG у місті Харків за адресою проспект Гагаріна, 183а",
    "region": "Харківська область",
    "town": "Харків",
    "postcode": "123",
    "address": "проспект Гагаріна, 183а",
    "lat": "49.939322566",
    "lng": "36.261965185"
  },
  {
    "brand": {
      "connect": {
        "id": 3
      }
    },
    "name": "WOG",
    "description": "Заправна станція WOG у місті Харків за адресою вул. Броненосця Потьомкіна, 4",
    "region": "Харківська область",
    "town": "Харків",
    "postcode": "123",
    "address": "вул. Броненосця Потьомкіна, 4",
    "lat": "49.986294655",
    "lng": "36.271491823"
  },
  {
    "brand": {
      "connect": {
        "id": 3
      }
    },
    "name": "WOG",
    "description": "Заправна станція WOG у місті Харків за адресою проспект Льва Ландау, 2в",
    "region": "Харківська область",
    "town": "Харків",
    "postcode": "123",
    "address": "проспект Льва Ландау, 2в",
    "lat": "49.939738241",
    "lng": "36.296441127"
  },
  {
    "brand": {
      "connect": {
        "id": 3
      }
    },
    "name": "WOG",
    "description": "Заправна станція WOG у місті Харків за адресою проспект Героїв Харкова, 247а",
    "region": "Харківська область",
    "town": "Харків",
    "postcode": "123",
    "address": "проспект Героїв Харкова, 247а",
    "lat": "49.970132251",
    "lng": "36.309230048"
  },
  {
    "brand": {
      "connect": {
        "id": 4
      }
    },
    "name": "Shell",
    "description": "Заправна станція Shell у місті Харків за адресою Тюменський провулок, 16б",
    "region": "Харківська область",
    "town": "Харків",
    "postcode": "123",
    "address": "Тюменський провулок, 16б",
    "lat": "49.964313559",
    "lng": "36.138448287"
  },
  {
    "brand": {
      "connect": {
        "id": 4
      }
    },
    "name": "Shell",
    "description": "Заправна станція Shell у місті Харків за адресою вул. Академіка Павлова, 120б",
    "region": "Харківська область",
    "town": "Харків",
    "postcode": "123",
    "address": "вул. Академіка Павлова, 120б",
    "lat": "50.008408000",
    "lng": "36.318220000"
  },
  {
    "brand": {
      "connect": {
        "id": 4
      }
    },
    "name": "Shell",
    "description": "Заправна станція Shell у місті Харків за адресою вул. Академіка Волкова, 1б",
    "region": "Харківська область",
    "town": "Харків",
    "postcode": "123",
    "address": "вул. Академіка Волкова, 1б",
    "lat": "49.975938644",
    "lng": "36.291612983"
  },
  {
    "brand": {
      "connect": {
        "id": 4
      }
    },
    "name": "Shell",
    "description": "Заправна станція Shell у місті Харків за адресою вул. Наріманова, 42",
    "region": "Харківська область",
    "town": "Харків",
    "postcode": "123",
    "address": "вул. Наріманова, 42",
    "lat": "49.972000000",
    "lng": "36.189000000"
  },
  {
    "brand": {
      "connect": {
        "id": 4
      }
    },
    "name": "Shell",
    "description": "Заправна станція Shell у місті Харків за адресою вул. Гагаріна, 49",
    "region": "Харківська область",
    "town": "Харків",
    "postcode": "123",
    "address": "вул. Гагаріна, 49",
    "lat": "49.973123000",
    "lng": "36.258115000"
  },
  {
    "brand": {
      "connect": {
        "id": 4
      }
    },
    "name": "Shell",
    "description": "Заправна станція Shell у місті Харків за адресою Магістральний в'їзд, 1б",
    "region": "Харківська область",
    "town": "Харків",
    "postcode": "123",
    "address": "Магістральний в'їзд, 1б",
    "lat": "49.967274000",
    "lng": "36.147927000"
  },
  {
    "brand": {
      "connect": {
        "id": 4
      }
    },
    "name": "Shell",
    "description": "Заправна станція Shell у місті Харків за адресою проспект Петра Григоренка, 22",
    "region": "Харківська область",
    "town": "Харків",
    "postcode": "123",
    "address": "проспект Петра Григоренка, 22",
    "lat": "49.945000000",
    "lng": "36.313000000"
  },
  {
    "brand": {
      "connect": {
        "id": 4
      }
    },
    "name": "Shell",
    "description": "Заправна станція Shell у місті Харків за адресою Ново-Баварський проспе́кт , 137б",
    "region": "Харківська область",
    "town": "Харків",
    "postcode": "123",
    "address": "Ново-Баварський проспе́кт , 137б",
    "lat": "49.953122000",
    "lng": "36.132762000"
  },
  {
    "brand": {
      "connect": {
        "id": 5
      }
    },
    "name": "Гефест",
    "description": "Заправна станція Гефест у місті Харків за адресою вул. Залютинська, 14",
    "region": "Харківська область",
    "town": "Харків",
    "postcode": "123",
    "address": "вул. Залютинська, 14",
    "lat": "49.977171000",
    "lng": "36.144299000"
  },
  {
    "brand": {
      "connect": {
        "id": 5
      }
    },
    "name": "Гефест",
    "description": "Заправна станція Гефест у місті Харків за адресою вул. Сидора Ковпака, 24",
    "region": "Харківська область",
    "town": "Харків",
    "postcode": "123",
    "address": "вул. Сидора Ковпака, 24",
    "lat": "50.028898980",
    "lng": "36.302600481"
  },
  {
    "brand": {
      "connect": {
        "id": 6
      }
    },
    "name": "",
    "description": "Заправна станція  у місті Харків за адресою вул. Леся Сердюка, 13",
    "region": "Харківська область",
    "town": "Харків",
    "postcode": "123",
    "address": "вул. Леся Сердюка, 13",
    "lat": "50.031792312",
    "lng": "36.341290920"
  },
  {
    "brand": {
      "connect": {
        "id": 7
      }
    },
    "name": "ANP",
    "description": "Заправна станція ANP у місті Харків за адресою вул. Клочківська, 317а",
    "region": "Харківська область",
    "town": "Харків",
    "postcode": "123",
    "address": "вул. Клочківська, 317а",
    "lat": "50.037618949",
    "lng": "36.196949620"
  },
  {
    "brand": {
      "connect": {
        "id": 7
      }
    },
    "name": "ANP",
    "description": "Заправна станція ANP у місті Харків за адресою вул. Конарева, 5",
    "region": "Харківська область",
    "town": "Харків",
    "postcode": "123",
    "address": "вул. Конарева, 5",
    "lat": "49.987823718",
    "lng": "36.207414993"
  },
  {
    "brand": {
      "connect": {
        "id": 7
      }
    },
    "name": "ANP",
    "description": "Заправна станція ANP у місті Харків за адресою простпект Леннона, 45/1",
    "region": "Харківська область",
    "town": "Харків",
    "postcode": "123",
    "address": "простпект Леннона, 45/1",
    "lat": "50.038290905",
    "lng": "36.220405865"
  },
  {
    "brand": {
      "connect": {
        "id": 7
      }
    },
    "name": "ANP",
    "description": "Заправна станція ANP у місті Харків за адресою вул. Сокільниківська, 30",
    "region": "Харківська область",
    "town": "Харків",
    "postcode": "123",
    "address": "вул. Сокільниківська, 30",
    "lat": "50.027643220",
    "lng": "36.257954211"
  },
  {
    "brand": {
      "connect": {
        "id": 7
      }
    },
    "name": "ANP",
    "description": "Заправна станція ANP у місті Харків за адресою проспект Героїв Харкова, 271а",
    "region": "Харківська область",
    "town": "Харків",
    "postcode": "123",
    "address": "проспект Героїв Харкова, 271а",
    "lat": "49.961040673",
    "lng": "36.348711004"
  },
  {
    "brand": {
      "connect": {
        "id": 7
      }
    },
    "name": "ANP",
    "description": "Заправна станція ANP у місті Харків за адресою проспект Гагаріна, 201/1",
    "region": "Харківська область",
    "town": "Харків",
    "postcode": "123",
    "address": "проспект Гагаріна, 201/1",
    "lat": "49.927440750",
    "lng": "36.266380409"
  },
  {
    "brand": {
      "connect": {
        "id": 7
      }
    },
    "name": "ANP",
    "description": "Заправна станція ANP у місті Харків за адресою вул. Дружби народів, 246а",
    "region": "Харківська область",
    "town": "Харків",
    "postcode": "123",
    "address": "вул. Дружби народів, 246а",
    "lat": "50.033089315",
    "lng": "36.359135918"
  },
  {
    "brand": {
      "connect": {
        "id": 7
      }
    },
    "name": "ANP",
    "description": "Заправна станція ANP у місті Харків за адресою вул. Піщана, 13а",
    "region": "Харківська область",
    "town": "Харків",
    "postcode": "123",
    "address": "вул. Піщана, 13а",
    "lat": "50.002144727",
    "lng": "36.217152731"
  },
  {
    "brand": {
      "connect": {
        "id": 7
      }
    },
    "name": "ANP",
    "description": "Заправна станція ANP у місті Харків за адресою проспект Тракторобудівників, 1/1",
    "region": "Харківська область",
    "town": "Харків",
    "postcode": "123",
    "address": "проспект Тракторобудівників, 1/1",
    "lat": "49.983010480",
    "lng": "36.341353802"
  },
  {
    "brand": {
      "connect": {
        "id": 7
      }
    },
    "name": "ANP",
    "description": "Заправна станція ANP у місті Харків за адресою проспект Героїв Харкова 138в",
    "region": "Харківська область",
    "town": "Харків",
    "postcode": "123",
    "address": "проспект Героїв Харкова 138в",
    "lat": "49.970132888",
    "lng": "36.306194980"
  },
  {
    "brand": {
      "connect": {
        "id": 7
      }
    },
    "name": "ANP",
    "description": "Заправна станція ANP у місті Харків за адресою проспект Гагаріна, 318б",
    "region": "Харківська область",
    "town": "Харків",
    "postcode": "123",
    "address": "проспект Гагаріна, 318б",
    "lat": "49.922163259",
    "lng": "36.269407731"
  },
  {
    "brand": {
      "connect": {
        "id": 7
      }
    },
    "name": "ANP",
    "description": "Заправна станція ANP у місті Харків за адресою проспект Гагаріна, 104",
    "region": "Харківська область",
    "town": "Харків",
    "postcode": "123",
    "address": "проспект Гагаріна, 104",
    "lat": "49.962592538",
    "lng": "36.258211769"
  },
  {
    "brand": {
      "connect": {
        "id": 8
      }
    },
    "name": "УТН-Восток",
    "description": "Заправна станція УТН-Восток у місті Харків за адресою проспект Льва Ландау,  241а",
    "region": "Харківська область",
    "town": "Харків",
    "postcode": "123",
    "address": "проспект Льва Ландау,  241а",
    "lat": "49.993649927",
    "lng": "36.313236534"
  },
  {
    "brand": {
      "connect": {
        "id": 8
      }
    },
    "name": "УТН-Восток",
    "description": "Заправна станція УТН-Восток у місті Харків за адресою вул. Шевченка, 9",
    "region": "Харківська область",
    "town": "Харків",
    "postcode": "123",
    "address": "вул. Шевченка, 9",
    "lat": "49.994252000",
    "lng": "36.245710000"
  },
  {
    "brand": {
      "connect": {
        "id": 8
      }
    },
    "name": "УТН-Восток",
    "description": "Заправна станція УТН-Восток у місті Харків за адресою пр-т Героїв Харкова на куті з вул. Академіка Волкова",
    "region": "Харківська область",
    "town": "Харків",
    "postcode": "123",
    "address": "пр-т Героїв Харкова на куті з вул. Академіка Волкова",
    "lat": "49.956445000",
    "lng": "36.282433000"
  },
  {
    "brand": {
      "connect": {
        "id": 8
      }
    },
    "name": "УТН-Восток",
    "description": "Заправна станція УТН-Восток у місті Харків за адресою Сімферопольське шосе, 11-а",
    "region": "Харківська область",
    "town": "Харків",
    "postcode": "123",
    "address": "Сімферопольське шосе, 11-а",
    "lat": "49.843802557",
    "lng": "36.077886913"
  },
  {
    "brand": {
      "connect": {
        "id": 8
      }
    },
    "name": "УТН-Восток",
    "description": "Заправна станція УТН-Восток у місті Харків за адресою вул. Клочківська, 260",
    "region": "Харківська область",
    "town": "Харків",
    "postcode": "123",
    "address": "вул. Клочківська, 260",
    "lat": "50.036838805",
    "lng": "36.198897902"
  },
  {
    "brand": {
      "connect": {
        "id": 9
      }
    },
    "name": "Татнефть",
    "description": "Заправна станція Татнефть у місті Харків за адресою Мерефянське шосе, 23",
    "region": "Харківська область",
    "town": "Харків",
    "postcode": "123",
    "address": "Мерефянське шосе, 23",
    "lat": "49.918236661",
    "lng": "36.264619711"
  },
  {
    "brand": {
      "connect": {
        "id": 9
      }
    },
    "name": "Татнефть",
    "description": "Заправна станція Татнефть у місті Харків за адресою проспект Льва Ландау, 33",
    "region": "Харківська область",
    "town": "Харків",
    "postcode": "123",
    "address": "проспект Льва Ландау, 33",
    "lat": "49.951607690",
    "lng": "36.301471610"
  },
  {
    "brand": {
      "connect": {
        "id": 9
      }
    },
    "name": "Татнефть",
    "description": "Заправна станція Татнефть у місті Харків за адресою вул. Північна, 11",
    "region": "Харківська область",
    "town": "Харків",
    "postcode": "123",
    "address": "вул. Північна, 11",
    "lat": "49.953733000",
    "lng": "36.364027000"
  },
  {
    "brand": {
      "connect": {
        "id": 9
      }
    },
    "name": "Татнефть",
    "description": "Заправна станція Татнефть у місті Харків за адресою Олександрівський проспект, 2б",
    "region": "Харківська область",
    "town": "Харків",
    "postcode": "123",
    "address": "Олександрівський проспект, 2б",
    "lat": "49.944533510",
    "lng": "36.334230162"
  },
  {
    "brand": {
      "connect": {
        "id": 4
      }
    },
    "name": "Shell",
    "description": "Заправна станція Shell у місті Харків за адресою вул. Москалівська, 131",
    "region": "Харківська область",
    "town": "Харків",
    "postcode": "123",
    "address": "вул. Москалівська, 131",
    "lat": "49.963417000",
    "lng": "36.217986000"
  },
  {
    "brand": {
      "connect": {
        "id": 10
      }
    },
    "name": "\"ОВИС\"",
    "description": "Заправна станція \"ОВИС\" у місті Харків за адресою вул. Клочківська, 98-А",
    "region": "Харківська область",
    "town": "Харків",
    "postcode": "123",
    "address": "вул. Клочківська, 98-А",
    "lat": "50.005035410",
    "lng": "36.218777597"
  },
  {
    "brand": {
      "connect": {
        "id": 10
      }
    },
    "name": "\"ОВИС\"",
    "description": "Заправна станція \"ОВИС\" у місті Харків за адресою проспект Гагаріна, 201 Б",
    "region": "Харківська область",
    "town": "Харків",
    "postcode": "123",
    "address": "проспект Гагаріна, 201 Б",
    "lat": "49.928151115",
    "lng": "36.265490279"
  },
  {
    "brand": {
      "connect": {
        "id": 10
      }
    },
    "name": "\"ОВИС\"",
    "description": "Заправна станція \"ОВИС\" у місті Харків за адресою вул. Чкалова, 2Б",
    "region": "Харківська область",
    "town": "Харків",
    "postcode": "123",
    "address": "вул. Чкалова, 2Б",
    "lat": "50.042880669",
    "lng": "36.278463453"
  },
  {
    "brand": {
      "connect": {
        "id": 10
      }
    },
    "name": "\"ОВИС\"",
    "description": "Заправна станція \"ОВИС\" у місті Харків за адресою 19км траси -Київ",
    "region": "Харківська область",
    "town": "Харків",
    "postcode": "123",
    "address": "19км траси -Київ",
    "lat": "49.982602951",
    "lng": "35.952269454"
  },
  {
    "brand": {
      "connect": {
        "id": 10
      }
    },
    "name": "\"ОВИС\"",
    "description": "Заправна станція \"ОВИС\" у місті Харків за адресою пр. Героїв Харкова, 16",
    "region": "Харківська область",
    "town": "Харків",
    "postcode": "123",
    "address": "пр. Героїв Харкова, 16",
    "lat": "49.988676426",
    "lng": "36.237191632"
  },
  {
    "brand": {
      "connect": {
        "id": 11
      }
    },
    "name": "АЗК хадо петрол",
    "description": "Заправна станція АЗК хадо петрол у місті Харків за адресою проспект Тракторобудівників, 1",
    "region": "Харківська область",
    "town": "Харків",
    "postcode": "123",
    "address": "проспект Тракторобудівників, 1",
    "lat": "49.983648000",
    "lng": "36.341228000"
  },
  {
    "brand": {
      "connect": {
        "id": 12
      }
    },
    "name": "УКР-СВ",
    "description": "Заправна станція УКР-СВ у місті Харків за адресою вул. Героїв праці 7",
    "region": "Харківська область",
    "town": "Харків",
    "postcode": "123",
    "address": "вул. Героїв праці 7",
    "lat": "50.025391490",
    "lng": "36.333403308"
  },
  {
    "brand": {
      "connect": {
        "id": 12
      }
    },
    "name": "УКР-СВ",
    "description": "Заправна станція УКР-СВ у місті Харків за адресою вул. Дружна 13",
    "region": "Харківська область",
    "town": "Харків",
    "postcode": "123",
    "address": "вул. Дружна 13",
    "lat": "50.047773650",
    "lng": "36.295971405"
  },
  {
    "brand": {
      "connect": {
        "id": 12
      }
    },
    "name": "УКР-СВ",
    "description": "Заправна станція УКР-СВ у місті Харків за адресою п. Песочин , Полтавське шосе 2а",
    "region": "Харківська область",
    "town": "Харків",
    "postcode": "123",
    "address": "п. Песочин , Полтавське шосе 2а",
    "lat": "49.956602383",
    "lng": "36.087191440"
  },
  {
    "brand": {
      "connect": {
        "id": 13
      }
    },
    "name": "Тема-н",
    "description": "Заправна станція Тема-н у місті Харків за адресою ская область, Богодухів, вул. Оверченка 36/3",
    "region": "Харківська область",
    "town": "Харків",
    "postcode": "123",
    "address": "Богодухів, вул. Оверченка 36/3",
    "lat": "50.145550452",
    "lng": "35.524338428"
  },
  {
    "brand": {
      "connect": {
        "id": 1
      }
    },
    "name": "ОККО",
    "description": "Заправна станція ОККО у місті Харків за адресою вул. Роганська, 160-А",
    "region": "Харківська область",
    "town": "Харків",
    "postcode": "123",
    "address": "вул. Роганська, 160-А",
    "lat": "49.909373991",
    "lng": "36.424352322"
  },
  {
    "brand": {
      "connect": {
        "id": 1
      }
    },
    "name": "ОККО",
    "description": "Заправна станція ОККО у місті Харків за адресою ская обл. с. Затишшя  вул. Світла, 1-А",
    "region": "Харківська область",
    "town": "Харків",
    "postcode": "123",
    "address": "с. Затишшя  вул. Світла, 1-А",
    "lat": "49.937867134",
    "lng": "36.435058191"
  },
  {
    "brand": {
      "connect": {
        "id": 1
      }
    },
    "name": "ОККО",
    "description": "Заправна станція ОККО у місті Харків за адресою вул. Греківська, 112",
    "region": "Харківська область",
    "town": "Харків",
    "postcode": "123",
    "address": "вул. Греківська, 112",
    "lat": "49.967697891",
    "lng": "36.242732741"
  },
  {
    "brand": {
      "connect": {
        "id": 1
      }
    },
    "name": "ОККО",
    "description": "Заправна станція ОККО у місті Харків за адресою проспект Ювілейний , 32-Б",
    "region": "Харківська область",
    "town": "Харків",
    "postcode": "123",
    "address": "проспект Ювілейний , 32-Б",
    "lat": "49.998807220",
    "lng": "36.313520595"
  },
  {
    "brand": {
      "connect": {
        "id": 1
      }
    },
    "name": "ОККО",
    "description": "Заправна станція ОККО у місті Харків за адресою вул. Мойсеївська, 40",
    "region": "Харківська область",
    "town": "Харків",
    "postcode": "123",
    "address": "вул. Мойсеївська, 40",
    "lat": "50.000899293",
    "lng": "36.272502746"
  },
  {
    "brand": {
      "connect": {
        "id": 1
      }
    },
    "name": "ОККО",
    "description": "Заправна станція ОККО у місті Харків за адресою вул. С.Колпака, 24",
    "region": "Харківська область",
    "town": "Харків",
    "postcode": "123",
    "address": "вул. С.Колпака, 24",
    "lat": "50.029050334",
    "lng": "36.302777175"
  },
  {
    "brand": {
      "connect": {
        "id": 1
      }
    },
    "name": "ОККО",
    "description": "Заправна станція ОККО у місті Харків за адресою ская обл. с. Пісочин  вул. Полтавське шосе, 208-А",
    "region": "Харківська область",
    "town": "Харків",
    "postcode": "123",
    "address": "с. Пісочин  вул. Полтавське шосе, 208-А",
    "lat": "49.962407942",
    "lng": "36.124751084"
  },
  {
    "brand": {
      "connect": {
        "id": 1
      }
    },
    "name": "ОККО",
    "description": "Заправна станція ОККО у місті Харків за адресою ская обл. с. Подворки  вул. Свердлова, 2-В",
    "region": "Харківська область",
    "town": "Харків",
    "postcode": "123",
    "address": "с. Подворки  вул. Свердлова, 2-В",
    "lat": "49.975877639",
    "lng": "36.111817688"
  },
  {
    "brand": {
      "connect": {
        "id": 1
      }
    },
    "name": "ОККО",
    "description": "Заправна станція ОККО у місті Харків за адресою ская обл. с. Пісочин  вул. Окружная, 1",
    "region": "Харківська область",
    "town": "Харків",
    "postcode": "123",
    "address": "с. Пісочин  вул. Окружная, 1",
    "lat": "49.956967725",
    "lng": "36.058661453"
  },
  {
    "brand": {
      "connect": {
        "id": 1
      }
    },
    "name": "ОККО",
    "description": "Заправна станція ОККО у місті Харків за адресою ская обл. с. Коротич Коротичанская с/р, автдорога Киев--Довжанский - 463км",
    "region": "Харківська область",
    "town": "Харків",
    "postcode": "123",
    "address": "ская обл. с. Коротич Коротичанская с/р, автдорога Киев--Довжанский - 463км",
    "lat": "49.966694122",
    "lng": "36.010568775"
  },
  {
    "brand": {
      "connect": {
        "id": 14
      }
    },
    "name": "ТНК",
    "description": "Заправна станція ТНК у місті Харків за адресою вул. Рєдіна, 100а",
    "region": "Харківська область",
    "town": "Харків",
    "postcode": "123",
    "address": "вул. Рєдіна, 100а",
    "lat": "49.213443293",
    "lng": "37.295252513"
  },
  {
    "brand": {
      "connect": {
        "id": 14
      }
    },
    "name": "ТНК",
    "description": "Заправна станція ТНК у місті Харків за адресою Мерефа, вул. Дніпровська, 302",
    "region": "Харківська область",
    "town": "Харків",
    "postcode": "123",
    "address": "Мерефа, вул. Дніпровська, 302",
    "lat": "49.771475738",
    "lng": "36.019343454"
  },
  {
    "brand": {
      "connect": {
        "id": 14
      }
    },
    "name": "ТНК",
    "description": "Заправна станція ТНК у місті Харків за адресою Мерефянське шосе, 11Б",
    "region": "Харківська область",
    "town": "Харків",
    "postcode": "123",
    "address": "Мерефянське шосе, 11Б",
    "lat": "49.918957869",
    "lng": "36.264348328"
  },
  {
    "brand": {
      "connect": {
        "id": 14
      }
    },
    "name": "ТНК",
    "description": "Заправна станція ТНК у місті Харків за адресою вул. Шевченка, 9",
    "region": "Харківська область",
    "town": "Харків",
    "postcode": "123",
    "address": "вул. Шевченка, 9",
    "lat": "49.994049819",
    "lng": "36.244934499"
  },
  {
    "brand": {
      "connect": {
        "id": 14
      }
    },
    "name": "ТНК",
    "description": "Заправна станція ТНК у місті Харків за адресою Льва Ландау, 241а",
    "region": "Харківська область",
    "town": "Харків",
    "postcode": "123",
    "address": "Льва Ландау, 241а",
    "lat": "49.994030259",
    "lng": "36.313779093"
  },
  {
    "brand": {
      "connect": {
        "id": 14
      }
    },
    "name": "ТНК",
    "description": "Заправна станція ТНК у місті Харків за адресою вул. Клочківська, 260",
    "region": "Харківська область",
    "town": "Харків",
    "postcode": "123",
    "address": "вул. Клочківська, 260",
    "lat": "50.037123420",
    "lng": "36.198327765"
  },
  {
    "brand": {
      "connect": {
        "id": 14
      }
    },
    "name": "ТНК",
    "description": "Заправна станція ТНК у місті Харків за адресою Дергачи, вул. Ворошилова, 18",
    "region": "Харківська область",
    "town": "Харків",
    "postcode": "123",
    "address": "Дергачи, вул. Ворошилова, 18",
    "lat": "50.116035172",
    "lng": "36.109389402"
  },
  {
    "brand": {
      "connect": {
        "id": 4
      }
    },
    "name": "Shell",
    "description": "Заправна станція Shell у місті Харків за адресою вул. Героїв Праці, 9",
    "region": "Харківська область",
    "town": "Харків",
    "postcode": "123",
    "address": "вул. Героїв Праці, 9",
    "lat": "50.025448297",
    "lng": "36.333466005"
  },
  {
    "brand": {
      "connect": {
        "id": 4
      }
    },
    "name": "Shell",
    "description": "Заправна станція Shell у місті Харків за адресою проулок Тюменский, 16-б",
    "region": "Харківська область",
    "town": "Харків",
    "postcode": "123",
    "address": "проулок Тюменский, 16-б",
    "lat": "49.963840000",
    "lng": "36.139502000"
  },
  {
    "brand": {
      "connect": {
        "id": 4
      }
    },
    "name": "Shell",
    "description": "Заправна станція Shell у місті Харків за адресою вул. Академіка Павлова, 120-б",
    "region": "Харківська область",
    "town": "Харків",
    "postcode": "123",
    "address": "вул. Академіка Павлова, 120-б",
    "lat": "50.008803000",
    "lng": "36.319507000"
  },
  {
    "brand": {
      "connect": {
        "id": 4
      }
    },
    "name": "Shell",
    "description": "Заправна станція Shell у місті Харків за адресою вул. Академіка Волкова, 1б",
    "region": "Харківська область",
    "town": "Харків",
    "postcode": "123",
    "address": "вул. Академіка Волкова, 1б",
    "lat": "49.965561000",
    "lng": "36.286521000"
  },
  {
    "brand": {
      "connect": {
        "id": 4
      }
    },
    "name": "Shell",
    "description": "Заправна станція Shell у місті Харків за адресою вул. Наріманова, 42",
    "region": "Харківська область",
    "town": "Харків",
    "postcode": "123",
    "address": "вул. Наріманова, 42",
    "lat": "49.972832000",
    "lng": "36.187832000"
  },
  {
    "brand": {
      "connect": {
        "id": 4
      }
    },
    "name": "Shell",
    "description": "Заправна станція Shell у місті Харків за адресою в'їзд Магістральний, 1-б",
    "region": "Харківська область",
    "town": "Харків",
    "postcode": "123",
    "address": "в'їзд Магістральний, 1-б",
    "lat": "49.942429000",
    "lng": "36.134768000"
  },
  {
    "brand": {
      "connect": {
        "id": 4
      }
    },
    "name": "Shell",
    "description": "Заправна станція Shell у місті Харків за адресою  проспект Петра Григоренко, 22",
    "region": "Харківська область",
    "town": "Харків",
    "postcode": "123",
    "address": " проспект Петра Григоренко, 22",
    "lat": "49.945231909",
    "lng": "36.313231755"
  },
  {
    "brand": {
      "connect": {
        "id": 4
      }
    },
    "name": "Shell",
    "description": "Заправна станція Shell у місті Харків за адресою  проспект Новобаварский, 137 б",
    "region": "Харківська область",
    "town": "Харків",
    "postcode": "123",
    "address": " проспект Новобаварский, 137 б",
    "lat": "49.952446000",
    "lng": "36.133295000"
  },
  {
    "brand": {
      "connect": {
        "id": 15
      }
    },
    "name": "MAX OIL",
    "description": "Заправна станція MAX OIL у місті Харків за адресою проспект Гагаріна 174",
    "region": "Харківська область",
    "town": "Харків",
    "postcode": "123",
    "address": "проспект Гагаріна 174",
    "lat": "49.951362000",
    "lng": "36.258628000"
  },
  {
    "brand": {
      "connect": {
        "id": 1
      }
    },
    "name": "ОККО",
    "description": "Заправна станція ОККО у місті Харків за адресою а/д Київ--Довжанський, 517км+320м",
    "region": "Харківська область",
    "town": "Харків",
    "postcode": "123",
    "address": "а/д Київ--Довжанський, 517км+320м",
    "lat": "49.923422511",
    "lng": "36.457793601"
  },
  {
    "brand": {
      "connect": {
        "id": 16
      }
    },
    "name": "КРАФТ",
    "description": "Заправна станція КРАФТ у місті Харків за адресою вул. Табірна, 1А",
    "region": "Харківська область",
    "town": "Харків",
    "postcode": "123",
    "address": "вул. Табірна, 1А",
    "lat": "49.991125000",
    "lng": "36.153857000"
  },
  {
    "brand": {
      "connect": {
        "id": 17
      }
    },
    "name": "VICTORY",
    "description": "Заправна станція VICTORY у місті Харків за адресою с. Кринички, вул. Котляревского, 1",
    "region": "Харківська область",
    "town": "Харків",
    "postcode": "123",
    "address": "с. Кринички, вул. Котляревского, 1",
    "lat": "49.760123000",
    "lng": "35.974176000"
  },
  {
    "brand": {
      "connect": {
        "id": 3
      }
    },
    "name": "WOG",
    "description": "Заправна станція WOG у місті Харків за адресою Красноградский р-н, с. Пещанка, вул. Энгельса, 144-146",
    "region": "Харківська область",
    "town": "Харків",
    "postcode": "123",
    "address": "Красноградский р-н, с. Пещанка, вул. Энгельса, 144-146",
    "lat": "49.389496414",
    "lng": "35.441727396"
  },
  {
    "brand": {
      "connect": {
        "id": 3
      }
    },
    "name": "WOG",
    "description": "Заправна станція WOG у місті Харків за адресою вул. Ахсарова, кут вул. Цілініградській",
    "region": "Харківська область",
    "town": "Харків",
    "postcode": "123",
    "address": "вул. Ахсарова, кут вул. Цілініградській",
    "lat": "50.048756612",
    "lng": "36.202133819"
  },
  {
    "brand": {
      "connect": {
        "id": 3
      }
    },
    "name": "WOG",
    "description": "Заправна станція WOG у місті Харків за адресою вул. Клочківська, угол вул. Кузнецкой",
    "region": "Харківська область",
    "town": "Харків",
    "postcode": "123",
    "address": "вул. Клочківська, угол вул. Кузнецкой",
    "lat": "50.032870113",
    "lng": "36.198979877"
  },
  {
    "brand": {
      "connect": {
        "id": 3
      }
    },
    "name": "WOG",
    "description": "Заправна станція WOG у місті Харків за адресою пр. Людвика Свободи, 57А",
    "region": "Харківська область",
    "town": "Харків",
    "postcode": "123",
    "address": "пр. Людвика Свободи, 57А",
    "lat": "50.062399620",
    "lng": "36.196559351"
  },
  {
    "brand": {
      "connect": {
        "id": 3
      }
    },
    "name": "WOG",
    "description": "Заправна станція WOG у місті Харків за адресою вул. Тракторобудівників, 1A",
    "region": "Харківська область",
    "town": "Харків",
    "postcode": "123",
    "address": "вул. Тракторобудівників, 1A",
    "lat": "49.975193868",
    "lng": "36.344692893"
  },
  {
    "brand": {
      "connect": {
        "id": 3
      }
    },
    "name": "WOG",
    "description": "Заправна станція WOG у місті Харків за адресою пгт. Коротич, Песочинский с/г, автодорога Киев-Довжанский 464км +850 м (слева)",
    "region": "Харківська область",
    "town": "Харків",
    "postcode": "123",
    "address": "пгт. Коротич, Песочинский с/г, автодорога Киев-Довжанский 464км +850 м (слева)",
    "lat": "49.960553078",
    "lng": "36.050581969"
  },
  {
    "brand": {
      "connect": {
        "id": 3
      }
    },
    "name": "WOG",
    "description": "Заправна станція WOG у місті Харків за адресою вул. Малопанасивський вʼїзд, 1",
    "region": "Харківська область",
    "town": "Харків",
    "postcode": "123",
    "address": "вул. Малопанасивський вʼїзд, 1",
    "lat": "49.998010066",
    "lng": "36.207909957"
  },
  {
    "brand": {
      "connect": {
        "id": 3
      }
    },
    "name": "WOG",
    "description": "Заправна станція WOG у місті Харків за адресою вул. Чуваська, 1",
    "region": "Харківська область",
    "town": "Харків",
    "postcode": "123",
    "address": "вул. Чуваська, 1",
    "lat": "49.973003041",
    "lng": "36.160672233"
  },
  {
    "brand": {
      "connect": {
        "id": 3
      }
    },
    "name": "WOG",
    "description": "Заправна станція WOG у місті Харків за адресою Дергачевский р-н, с. Черкасская Лозовая, пер. Лучевой, 29",
    "region": "Харківська область",
    "town": "Харків",
    "postcode": "123",
    "address": "Дергачевский р-н, с. Черкасская Лозовая, пер. Лучевой, 29",
    "lat": "50.092194715",
    "lng": "36.241373364"
  },
  {
    "brand": {
      "connect": {
        "id": 1
      }
    },
    "name": "ОККО",
    "description": "Заправна станція ОККО у місті Харків за адресою Кулиничи, вул. Липецкая, 5",
    "region": "Харківська область",
    "town": "Харків",
    "postcode": "123",
    "address": "Кулиничи, вул. Липецкая, 5",
    "lat": "49.786373000",
    "lng": "33.538260000"
  },
  {
    "brand": {
      "connect": {
        "id": 1
      }
    },
    "name": "ОККО",
    "description": "Заправна станція ОККО у місті Харків за адресою вул. Гвардійців Широнінців, 83А",
    "region": "Харківська область",
    "town": "Харків",
    "postcode": "123",
    "address": "вул. Гвардійців Широнінців, 83А",
    "lat": "50.028860271",
    "lng": "36.354293022"
  },
  {
    "brand": {
      "connect": {
        "id": 1
      }
    },
    "name": "ОККО",
    "description": "Заправна станція ОККО у місті Харків за адресою вул. Ак. Павлова, 120Б",
    "region": "Харківська область",
    "town": "Харків",
    "postcode": "123",
    "address": "вул. Ак. Павлова, 120Б",
    "lat": "50.008293052",
    "lng": "36.317789834"
  },
  {
    "brand": {
      "connect": {
        "id": 14
      }
    },
    "name": "ТНК",
    "description": "Заправна станція ТНК у місті Харків за адресою ская обл., с. Коротич",
    "region": "Харківська область",
    "town": "Харків",
    "postcode": "123",
    "address": "с. Коротич",
    "lat": "49.946487000",
    "lng": "36.040454000"
  },
  {
    "brand": {
      "connect": {
        "id": 18
      }
    },
    "name": "УкрНафта",
    "description": "Заправна станція УкрНафта у місті Харків за адресою проспект Гагаріна, 191/1",
    "region": "Харківська область",
    "town": "Харків",
    "postcode": "123",
    "address": "проспект Гагаріна, 191/1",
    "lat": "49.930700000",
    "lng": "36.263883000"
  },
  {
    "brand": {
      "connect": {
        "id": 19
      }
    },
    "name": "Авиас Плюс",
    "description": "Заправна станція Авиас Плюс у місті Харків за адресою Мерефянське шосе, 36",
    "region": "Харківська область",
    "town": "Харків",
    "postcode": "123",
    "address": "Мерефянське шосе, 36",
    "lat": "49.915528000",
    "lng": "36.257245000"
  },
  {
    "brand": {
      "connect": {
        "id": 18
      }
    },
    "name": "УкрНафта",
    "description": "Заправна станція УкрНафта у місті Харків за адресою проспект Льва Ландау, 2Г",
    "region": "Харківська область",
    "town": "Харків",
    "postcode": "123",
    "address": "проспект Льва Ландау, 2Г",
    "lat": "49.940151000",
    "lng": "36.298630000"
  },
  {
    "brand": {
      "connect": {
        "id": 18
      }
    },
    "name": "УкрНафта",
    "description": "Заправна станція УкрНафта у місті Харків за адресою проспект Льва Ландау, 27/1",
    "region": "Харківська область",
    "town": "Харків",
    "postcode": "123",
    "address": "проспект Льва Ландау, 27/1",
    "lat": "49.933413000",
    "lng": "36.273693000"
  },
  {
    "brand": {
      "connect": {
        "id": 19
      }
    },
    "name": "Авиас Плюс",
    "description": "Заправна станція Авиас Плюс у місті Харків за адресою пр. Косиора, 1А",
    "region": "Харківська область",
    "town": "Харків",
    "postcode": "123",
    "address": "пр. Косиора, 1А",
    "lat": "49.945855000",
    "lng": "36.339602000"
  },
  {
    "brand": {
      "connect": {
        "id": 18
      }
    },
    "name": "УкрНафта",
    "description": "Заправна станція УкрНафта у місті Харків за адресою пр. Героїв Харкова, 272А",
    "region": "Харківська область",
    "town": "Харків",
    "postcode": "123",
    "address": "пр. Героїв Харкова, 272А",
    "lat": "49.944209000",
    "lng": "36.399610000"
  },
  {
    "brand": {
      "connect": {
        "id": 18
      }
    },
    "name": "УкрНафта",
    "description": "Заправна станція УкрНафта у місті Харків за адресою пр. Героїв Харкова, 290А",
    "region": "Харківська область",
    "town": "Харків",
    "postcode": "123",
    "address": "пр. Героїв Харкова, 290А",
    "lat": "49.930682000",
    "lng": "36.425948000"
  },
  {
    "brand": {
      "connect": {
        "id": 18
      }
    },
    "name": "УкрНафта",
    "description": "Заправна станція УкрНафта у місті Харків за адресою пр. Героїв Харкова, 297Б",
    "region": "Харківська область",
    "town": "Харків",
    "postcode": "123",
    "address": "пр. Героїв Харкова, 297Б",
    "lat": "49.943328000",
    "lng": "36.419974000"
  },
  {
    "brand": {
      "connect": {
        "id": 18
      }
    },
    "name": "УкрНафта",
    "description": "Заправна станція УкрНафта у місті Харків за адресою пр. Тракторобудівників, 2Г",
    "region": "Харківська область",
    "town": "Харків",
    "postcode": "123",
    "address": "пр. Тракторобудівників, 2Г",
    "lat": "49.979002000",
    "lng": "36.343878000"
  },
  {
    "brand": {
      "connect": {
        "id": 18
      }
    },
    "name": "УкрНафта",
    "description": "Заправна станція УкрНафта у місті Харків за адресою вул. Льва Ландау, 187Б",
    "region": "Харківська область",
    "town": "Харків",
    "postcode": "123",
    "address": "вул. Льва Ландау, 187Б",
    "lat": "49.980184000",
    "lng": "36.310245000"
  },
  {
    "brand": {
      "connect": {
        "id": 18
      }
    },
    "name": "УкрНафта",
    "description": "Заправна станція УкрНафта у місті Харків за адресою вул. Ак. Павлова, 44/51",
    "region": "Харківська область",
    "town": "Харків",
    "postcode": "123",
    "address": "вул. Ак. Павлова, 44/51",
    "lat": "49.988304000",
    "lng": "36.284481000"
  },
  {
    "brand": {
      "connect": {
        "id": 18
      }
    },
    "name": "УкрНафта",
    "description": "Заправна станція УкрНафта у місті Харків за адресою вул. Залютинська, 12",
    "region": "Харківська область",
    "town": "Харків",
    "postcode": "123",
    "address": "вул. Залютинська, 12",
    "lat": "49.973864615",
    "lng": "36.145357322"
  },
  {
    "brand": {
      "connect": {
        "id": 19
      }
    },
    "name": "Авиас Плюс",
    "description": "Заправна станція Авиас Плюс у місті Харків за адресою вул. Роганська, 132Б",
    "region": "Харківська область",
    "town": "Харків",
    "postcode": "123",
    "address": "вул. Роганська, 132Б",
    "lat": "49.918822000",
    "lng": "36.416076000"
  },
  {
    "brand": {
      "connect": {
        "id": 19
      }
    },
    "name": "Авиас Плюс",
    "description": "Заправна станція Авиас Плюс у місті Харків за адресою вул. Харківських Дивізій, 22Б",
    "region": "Харківська область",
    "town": "Харків",
    "postcode": "123",
    "address": "вул. Харківських Дивізій, 22Б",
    "lat": "49.954787000",
    "lng": "36.330026000"
  },
  {
    "brand": {
      "connect": {
        "id": 20
      }
    },
    "name": "БРСМ-Нафта",
    "description": "Заправна станція БРСМ-Нафта у місті Харків за адресою Велика Кільцева, 6Б",
    "region": "Харківська область",
    "town": "Харків",
    "postcode": "123",
    "address": "Велика Кільцева, 6Б",
    "lat": "49.930276000",
    "lng": "36.439144000"
  },
  {
    "brand": {
      "connect": {
        "id": 20
      }
    },
    "name": "БРСМ-Нафта",
    "description": "Заправна станція БРСМ-Нафта у місті Харків за адресою проспект Героїв Харкова, 195А",
    "region": "Харківська область",
    "town": "Харків",
    "postcode": "123",
    "address": "проспект Героїв Харкова, 195А",
    "lat": "49.979662000",
    "lng": "36.287078000"
  },
  {
    "brand": {
      "connect": {
        "id": 20
      }
    },
    "name": "БРСМ-Нафта",
    "description": "Заправна станція БРСМ-Нафта у місті Харків за адресою проспект Героїв Харкова, 138Г",
    "region": "Харківська область",
    "town": "Харків",
    "postcode": "123",
    "address": "проспект Героїв Харкова, 138Г",
    "lat": "49.970874000",
    "lng": "36.304128000"
  },
  {
    "brand": {
      "connect": {
        "id": 20
      }
    },
    "name": "БРСМ-Нафта",
    "description": "Заправна станція БРСМ-Нафта у місті Харків за адресою проспект Героїв Харкова, 273Д",
    "region": "Харківська область",
    "town": "Харків",
    "postcode": "123",
    "address": "проспект Героїв Харкова, 273Д",
    "lat": "49.956312000",
    "lng": "36.377673000"
  },
  {
    "brand": {
      "connect": {
        "id": 20
      }
    },
    "name": "БРСМ-Нафта",
    "description": "Заправна станція БРСМ-Нафта у місті Харків за адресою вул. Академіка Павлова, 130А",
    "region": "Харківська область",
    "town": "Харків",
    "postcode": "123",
    "address": "вул. Академіка Павлова, 130А",
    "lat": "50.012346000",
    "lng": "36.325750000"
  },
  {
    "brand": {
      "connect": {
        "id": 20
      }
    },
    "name": "БРСМ-Нафта",
    "description": "Заправна станція БРСМ-Нафта у місті Харків за адресою пр. Льва Ландау, 155Б",
    "region": "Харківська область",
    "town": "Харків",
    "postcode": "123",
    "address": "пр. Льва Ландау, 155Б",
    "lat": "49.958555000",
    "lng": "36.302591000"
  },
  {
    "brand": {
      "connect": {
        "id": 20
      }
    },
    "name": "БРСМ-Нафта",
    "description": "Заправна станція БРСМ-Нафта у місті Харків за адресою Люботин, с. Нестеренки, вул. Киевский шлях, 2",
    "region": "Харківська область",
    "town": "Харків",
    "postcode": "123",
    "address": "Люботин, с. Нестеренки, вул. Киевский шлях, 2",
    "lat": "49.971754817",
    "lng": "35.894373637"
  },
  {
    "brand": {
      "connect": {
        "id": 20
      }
    },
    "name": "БРСМ-Нафта",
    "description": "Заправна станція БРСМ-Нафта у місті Харків за адресою ская обл., смт. Песочин, вул. Рождественская, 1А",
    "region": "Харківська область",
    "town": "Харків",
    "postcode": "123",
    "address": "смт. Песочин, вул. Рождественская, 1А",
    "lat": "50.185148000",
    "lng": "35.647172000"
  },
  {
    "brand": {
      "connect": {
        "id": 20
      }
    },
    "name": "БРСМ-Нафта",
    "description": "Заправна станція БРСМ-Нафта у місті Харків за адресою с. Коммунар, вул. Безлюдовская, 1",
    "region": "Харківська область",
    "town": "Харків",
    "postcode": "123",
    "address": "с. Коммунар, вул. Безлюдовская, 1",
    "lat": "49.911131000",
    "lng": "36.293743000"
  },
  {
    "brand": {
      "connect": {
        "id": 20
      }
    },
    "name": "БРСМ-Нафта",
    "description": "Заправна станція БРСМ-Нафта у місті Харків за адресою ская обл., пгт. Бабаи, вул. Красных Партизанов, 18А",
    "region": "Харківська область",
    "town": "Харків",
    "postcode": "123",
    "address": "пгт. Бабаи, вул. Красных Партизанов, 18А",
    "lat": "49.912291000",
    "lng": "36.196833000"
  },
  {
    "brand": {
      "connect": {
        "id": 21
      }
    },
    "name": "АТП 2006",
    "description": "Заправна станція АТП 2006 у місті Харків за адресою вул. Исполкомовская, 30",
    "region": "Харківська область",
    "town": "Харків",
    "postcode": "123",
    "address": "вул. Исполкомовская, 30",
    "lat": "49.960767961",
    "lng": "36.186754033"
  },
  {
    "brand": {
      "connect": {
        "id": 22
      }
    },
    "name": "Овис ОПТ",
    "description": "Заправна станція Овис ОПТ у місті Харків за адресою вул. Ромашкина, 14",
    "region": "Харківська область",
    "town": "Харків",
    "postcode": "123",
    "address": "вул. Ромашкина, 14",
    "lat": "49.915800000",
    "lng": "36.282415000"
  },
  {
    "brand": {
      "connect": {
        "id": 22
      }
    },
    "name": "Овис ОПТ",
    "description": "Заправна станція Овис ОПТ у місті Харків за адресою Мерефа, вул. Днепропетровская, 2-А",
    "region": "Харківська область",
    "town": "Харків",
    "postcode": "123",
    "address": "Мерефа, вул. Днепропетровская, 2-А",
    "lat": "49.809458000",
    "lng": "36.055510000"
  },
  {
    "brand": {
      "connect": {
        "id": 22
      }
    },
    "name": "Овис ОПТ",
    "description": "Заправна станція Овис ОПТ у місті Харків за адресою Песочин, вул.Полтавське шосе, 206-В",
    "region": "Харківська область",
    "town": "Харків",
    "postcode": "123",
    "address": "Песочин, вул.Полтавське шосе, 206-В",
    "lat": "49.964709000",
    "lng": "36.126737000"
  },
  {
    "brand": {
      "connect": {
        "id": 22
      }
    },
    "name": "Овис ОПТ",
    "description": "Заправна станція Овис ОПТ у місті Харків за адресою Балаклея,  Цемзаводское шоссе, 1(напротив завода \"Евроцемент\")",
    "region": "Харківська область",
    "town": "Харків",
    "postcode": "123",
    "address": "Балаклея,  Цемзаводское шоссе, 1(напротив завода \"Евроцемент\")",
    "lat": "49.459132000",
    "lng": "36.852531000"
  },
  {
    "brand": {
      "connect": {
        "id": 23
      }
    },
    "name": "НПЗ Харьков",
    "description": "Заправна станція НПЗ Харьков у місті Харків за адресою вул. Героїв Праці, 9 ж",
    "region": "Харківська область",
    "town": "Харків",
    "postcode": "123",
    "address": "вул. Героїв Праці, 9 ж",
    "lat": "50.027742000",
    "lng": "36.330987000"
  },
  {
    "brand": {
      "connect": {
        "id": 24
      }
    },
    "name": "Titan",
    "description": "Заправна станція Titan у місті Харків за адресою вул. Леся Сердюка, 41-а",
    "region": "Харківська область",
    "town": "Харків",
    "postcode": "123",
    "address": "вул. Леся Сердюка, 41-а",
    "lat": "50.036375000",
    "lng": "36.345019000"
  },
  {
    "brand": {
      "connect": {
        "id": 24
      }
    },
    "name": "Тitan",
    "description": "Заправна станція Тitan у місті Харків за адресою вул. Академіка Павлова, 88",
    "region": "Харківська область",
    "town": "Харків",
    "postcode": "123",
    "address": "вул. Академіка Павлова, 88",
    "lat": "49.995040000",
    "lng": "36.297992000"
  },
  {
    "brand": {
      "connect": {
        "id": 25
      }
    },
    "name": "Motto",
    "description": "Заправна станція Motto у місті Харків за адресою ская обл., пгт. Бабаи, вул. Красных Партизанов, 18А",
    "region": "Харківська область",
    "town": "Харків",
    "postcode": "123",
    "address": "пгт. Бабаи, вул. Красных Партизанов, 18А",
    "lat": "49.894847700",
    "lng": "36.158339500"
  },
  {
    "brand": {
      "connect": {
        "id": 25
      }
    },
    "name": "Motto",
    "description": "Заправна станція Motto у місті Харків за адресою вул. Академіка Павлова, 130А",
    "region": "Харківська область",
    "town": "Харків",
    "postcode": "123",
    "address": "вул. Академіка Павлова, 130А",
    "lat": "50.012417100",
    "lng": "36.323395100"
  }
]